[
  {
    "lat": 51.608797,
    "lng": -0.316240,
    "radius": 10000,
    "name": "London"
  },
  {
    "lat": 51.609542,
    "lng": 0.039912,
    "radius": 10000,
    "name": "London"
  },
  {
    "lat": 51.390824,
    "lng": -0.322771,
    "radius": 10000,
    "name": "London"
  },
  {
    "lat": 51.378249,
    "lng": -0.016757,
    "radius": 10000,
    "name": "London"
  },
  {
    "lat": 51.500706,
    "lng": -0.079723,
    "radius": 10000,
    "name": "London"
  },
  {
    "lat": 52.405279,
    "lng": -1.931224,
    "radius": 10000,
    "name": "Birmingham"
  },
  {
    "lat": 52.468501,
    "lng": -1.838952,
    "radius": 10000,
    "name": "Birmingham"
  },
  {
    "lat": 53.822603,
    "lng": -1.618818,
    "radius": 5000,
    "name": "Leeds"
  },
  {
    "lat": 53.760950,
    "lng": -1.405271,
    "radius": 5000,
    "name": "Leeds"
  },
  {
    "lat": 53.371054,
    "lng": -1.489611,
    "radius": 5000,
    "name": "Sheffield"
  },
  {
    "lat": 53.389319,
    "lng": -1.464706,
    "radius": 5000,
    "name": "Sheffield"
  },
  {
    "lat": 53.803343,
    "lng": -1.745990,
    "radius": 5000,
    "name": "Bradford"
  },
  {
    "lat": 53.784532,
    "lng": -1.749460,
    "radius": 5000,
    "name": "Bradford"
  },
  {
    "lat": 53.512881,
    "lng": -2.324411,
    "radius": 5000,
    "name": "Manchester"
  },
  {
    "lat": 53.515066,
    "lng": -2.214583,
    "radius": 5000,
    "name": "Manchester"
  },
  {
    "lat": 53.463081,
    "lng": -2.183145,
    "radius": 5000,
    "name": "Manchester"
  },
  {
    "lat": 53.474747,
    "lng": -2.246429,
    "radius": 5000,
    "name": "Manchester"
  },
  {
    "lat": 53.467456,
    "lng": -2.327269,
    "radius": 5000,
    "name": "Manchester"
  },
  {
    "lat": 53.487990,
    "lng": -2.879566,
    "radius": 5000,
    "name": "Liverpool"
  },
  {
    "lat": 53.503447,
    "lng": -2.749074,
    "radius": 5000,
    "name": "Liverpool"
  },
  {
    "lat": 53.448464,
    "lng": -2.731752,
    "radius": 5000,
    "name": "Liverpool"
  },
  {
    "lat": 53.398918,
    "lng": -2.623201,
    "radius": 5000,
    "name": "Liverpool"
  },
  {
    "lat": 53.387900,
    "lng": -2.766396,
    "radius": 5000,
    "name": "Liverpool"
  },
  {
    "lat": 53.387900,
    "lng": -2.909591,
    "radius": 5000,
    "name": "Liverpool"
  },
  {
    "lat": 53.420601,
    "lng": -2.945967,
    "radius": 5000,
    "name": "Liverpool"
  },
  {
    "lat": 51.446675,
    "lng": -2.587593,
    "radius": 5000,
    "name": "Bristol"
  },
  {
    "lat": 51.461500,
    "lng": -2.588443,
    "radius": 5000,
    "name": "Bristol"
  },
  {
    "lat": 53.663470,
    "lng": -1.505237,
    "radius": 5000,
    "name": "Wakefield"
  },
  {
    "lat": 53.688993,
    "lng": -1.500087,
    "radius": 5000,
    "name": "Wakefield"
  },
  {
    "lat": 52.378914,
    "lng": -1.512001,
    "radius": 5000,
    "name": "Coventry"
  },
  {
    "lat": 52.434921,
    "lng": -1.493524,
    "radius": 5000,
    "name": "Coventry"
  },
  {
    "lat": 52.600413,
    "lng": -1.151014,
    "radius": 5000,
    "name": "Leicester"
  },
  {
    "lat": 52.646265,
    "lng": -1.094710,
    "radius": 5000,
    "name": "Leicester"
  },
  {
    "lat": 52.665853,
    "lng": -1.162344,
    "radius": 5000,
    "name": "Leicester"
  },
  {
    "lat": 52.972535,
    "lng": -1.152688,
    "radius": 5000,
    "name": "Nottingham"
  },
  {
    "lat": 52.933226,
    "lng": -1.114291,
    "radius": 5000,
    "name": "Nottingham"
  },
  {
    "lat": 52.966118,
    "lng": -1.097836,
    "radius": 5000,
    "name": "Nottingham"
  },
  {
    "lat": 54.905660,
    "lng": -1.383013,
    "radius": 5000,
    "name": "Sunderland"
  },
  {
    "lat": 54.952184,
    "lng": -1.437809,
    "radius": 5000,
    "name": "Sunderland"
  },
  {
    "lat": 54.883061,
    "lng": -1.455993,
    "radius": 5000,
    "name": "Sunderland"
  },
  {
    "lat": 54.967444,
    "lng": -1.618119,
    "radius": 5000,
    "name": "Newcastle"
  },
  {
    "lat": 54.989989,
    "lng": -1.614628,
    "radius": 5000,
    "name": "Newcastle"
  },
  {
    "lat": 53.750364,
    "lng": -0.382549,
    "radius": 5000,
    "name": "Kingston upon Hull"
  },
  {
    "lat": 53.778307,
    "lng": -0.320307,
    "radius": 5000,
    "name": "Kingston upon Hull"
  },
  {
    "lat": 50.829502,
    "lng": -0.111480,
    "radius": 5000,
    "name": "Brighton"
  },
  {
    "lat": 50.838526,
    "lng": -0.194478,
    "radius": 5000,
    "name": "Brighton"
  },
  {
    "lat": 50.392144,
    "lng": -4.124244,
    "radius": 5000,
    "name": "Plymouth"
  },
  {
    "lat": 52.990586,
    "lng": -2.176608,
    "radius": 5000,
    "name": "Stoke-on-Trent"
  },
  {
    "lat": 53.024242,
    "lng": -2.215803,
    "radius": 5000,
    "name": "Stoke-on-Trent"
  },
  {
    "lat": 52.898207,
    "lng": -1.500868,
    "radius": 5000,
    "name": "Derby"
  },
  {
    "lat": 52.935056,
    "lng": -1.454520,
    "radius": 5000,
    "name": "Derby"
  },
  {
    "lat": 52.585575,
    "lng": -2.127609,
    "radius": 5000,
    "name": "Wolverhampton"
  },
  {
    "lat": 52.583755,
    "lng": -1.981494,
    "radius": 5000,
    "name": "Wolverhampton"
  },
  {
    "lat": 50.926581,
    "lng": -1.401470,
    "radius": 5000,
    "name": "Southampton"
  },
  {
    "lat": 50.817090,
    "lng": -1.065217,
    "radius": 5000,
    "name": "Portsmouth"
  },
  {
    "lat": 50.871174,
    "lng": -1.044847,
    "radius": 5000,
    "name": "Portsmouth"
  },
  {
    "lat": 53.960569,
    "lng": -1.080925,
    "radius": 5000,
    "name": "York"
  },
  {
    "lat": 52.500910,
    "lng": -0.233612,
    "radius": 5000,
    "name": "Peterborough"
  },
  {
    "lat": 52.570837,
    "lng": -0.242800,
    "radius": 5000,
    "name": "Peterborough"
  },
  {
    "lat": 52.593308,
    "lng": -0.222653,
    "radius": 5000,
    "name": "Peterborough"
  },
  {
    "lat": 51.751661,
    "lng": -1.253066,
    "radius": 5000,
    "name": "Oxford"
  },
  {
    "lat": 51.252384,
    "lng": 1.025071,
    "radius": 5000,
    "name": "Canterbury"
  },
  {
    "lat": 51.282252,
    "lng": 1.083912,
    "radius": 5000,
    "name": "Canterbury"
  },
  {
    "lat": 52.629789,
    "lng": 1.297483,
    "radius": 5000,
    "name": "Norwich"
  },
  {
    "lat": 52.649256,
    "lng": 1.278263,
    "radius": 5000,
    "name": "Norwich"
  },
  {
    "lat": 53.762998,
    "lng": -2.702979,
    "radius": 5000,
    "name": "Preston"
  },
  {
    "lat": 53.723509,
    "lng": -2.704251,
    "radius": 5000,
    "name": "Preston"
  },
  {
    "lat": 51.862186,
    "lng": -2.238734,
    "radius": 5000,
    "name": "Gloucester"
  },
  {
    "lat": 50.715836,
    "lng": -3.532196,
    "radius": 5000,
    "name": "Exeter"
  },
  {
    "lat": 52.203587,
    "lng": 0.122775,
    "radius": 5000,
    "name": "Cambridge"
  },
  {
    "lat": 53.169319,
    "lng": -2.894727,
    "radius": 5000,
    "name": "Chester"
  },
  {
    "lat": 53.199287,
    "lng": -2.890525,
    "radius": 5000,
    "name": "Chester"
  },
  {
    "lat": 51.058899,
    "lng": -1.310292,
    "radius": 5000,
    "name": "Winchester"
  },
  {
    "lat": 54.892395,
    "lng": -2.932893,
    "radius": 5000,
    "name": "Carlisle"
  },
  {
    "lat": 54.774960,
    "lng": -1.584873,
    "radius": 5000,
    "name": "Durham"
  },
  {
    "lat": 52.176749,
    "lng": -2.233746,
    "radius": 5000,
    "name": "Worcester"
  },
  {
    "lat": 52.186122,
    "lng": -2.191253,
    "radius": 5000,
    "name": "Worcester"
  },
  {
    "lat": 52.198415,
    "lng": -2.221966,
    "radius": 5000,
    "name": "Worcester"
  },
  {
    "lat": 53.230080,
    "lng": -0.540464,
    "radius": 5000,
    "name": "Lincoln"
  },
  {
    "lat": 51.376377,
    "lng": -2.360357,
    "radius": 5000,
    "name": "Bath"
  },
  {
    "lat": 51.751296,
    "lng": -0.339621,
    "radius": 5000,
    "name": "St Albans"
  },
  {
    "lat": 52.055620,
    "lng": -2.716153,
    "radius": 5000,
    "name": "Hereford"
  },
  {
    "lat": 54.046459,
    "lng": -2.800784,
    "radius": 5000,
    "name": "Lancaster"
  },
  {
    "lat": 51.067922,
    "lng": -1.793887,
    "radius": 5000,
    "name": "Salisbury"
  },
  {
    "lat": 52.681009,
    "lng": -1.831611,
    "radius": 5000,
    "name": "Lichfield"
  },
  {
    "lat": 50.836296,
    "lng": -0.773704,
    "radius": 5000,
    "name": "Chichester"
  },
  {
    "lat": 50.263071,
    "lng": -5.051035,
    "radius": 5000,
    "name": "Truro"
  },
  {
    "lat": 54.135688,
    "lng": -1.523311,
    "radius": 5000,
    "name": "Ripon"
  },
  {
    "lat": 52.398397,
    "lng": 0.262424,
    "radius": 5000,
    "name": "Ely"
  },
  {
    "lat": 51.209262,
    "lng": -2.644471,
    "radius": 5000,
    "name": "Wells"
  },
  {
    "lat": 51.734487,
    "lng": 0.469173,
    "radius": 5000,
    "name": "Chelmsford"
  },
  {
    "lat": 54.350183,
    "lng": -6.652889,
    "radius": 5000,
    "name": "Armagh"
  },
  {
    "lat": 54.596694,
    "lng": -5.929934,
    "radius": 5000,
    "name": "Belfast"
  },
  {
    "lat": 54.995147,
    "lng": -7.308108,
    "radius": 5000,
    "name": "Derry"
  },
  {
    "lat": 54.515968,
    "lng": -6.058062,
    "radius": 5000,
    "name": "Lisburn"
  },
  {
    "lat": 54.175112,
    "lng": -6.339991,
    "radius": 5000,
    "name": "Newry"
  },
  {
    "lat": 57.171375,
    "lng": -2.110258,
    "radius": 5000,
    "name": "Aberdeen"
  },
  {
    "lat": 57.137057,
    "lng": -2.090789,
    "radius": 5000,
    "name": "Aberdeen"
  },
  {
    "lat": 56.464624,
    "lng": -2.972477,
    "radius": 5000,
    "name": "Dundee"
  },
  {
    "lat": 55.944635,
    "lng": -3.255729,
    "radius": 5000,
    "name": "Edinburgh"
  },
  {
    "lat": 55.935779,
    "lng": -3.177810,
    "radius": 5000,
    "name": "Edinburgh"
  },
  {
    "lat": 55.935779,
    "lng": -3.177810,
    "radius": 5000,
    "name": "Edinburgh"
  },
  {
    "lat": 55.857707,
    "lng": -4.254686,
    "radius": 5000,
    "name": "Glasgow"
  },
  {
    "lat": 55.863276,
    "lng": -4.133948,
    "radius": 5000,
    "name": "Glasgow"
  },
  {
    "lat": 55.899865,
    "lng": -4.280890,
    "radius": 5000,
    "name": "Glasgow"
  },
  {
    "lat": 57.477425,
    "lng": -4.224691,
    "radius": 5000,
    "name": "Inverness"
  },
  {
    "lat": 56.394461,
    "lng": -3.430822,
    "radius": 5000,
    "name": "Perth"
  },
  {
    "lat": 56.116107,
    "lng": -3.936922,
    "radius": 5000,
    "name": "Stirling"
  },
  {
    "lat": 53.226267,
    "lng": -4.128442,
    "radius": 5000,
    "name": "Bangor"
  },
  {
    "lat": 51.479420,
    "lng": -3.177320,
    "radius": 5000,
    "name": "Cardiff"
  },
  {
    "lat": 51.502018,
    "lng": -3.146367,
    "radius": 5000,
    "name": "Cardiff"
  },
  {
    "lat": 51.486601,
    "lng": -3.219197,
    "radius": 5000,
    "name": "Cardiff"
  },
  {
    "lat": 51.579620,
    "lng": -2.995726,
    "radius": 5000,
    "name": "Newport"
  },
  {
    "lat": 51.575267,
    "lng": -2.938022,
    "radius": 5000,
    "name": "Newport"
  },
  {
    "lat": 53.257679,
    "lng": -3.441717,
    "radius": 5000,
    "name": "St Asaph"
  },
  {
    "lat": 51.621405,
    "lng": -3.944113,
    "radius": 5000,
    "name": "Swansea"
  },
  {
    "lat": 51.643358,
    "lng": -3.936572,
    "radius": 5000,
    "name": "Swansea"
  }
]



